{
  "channel": {
  "item": [
      {
        "phone": "02-6002-1880",
        "newAddress": "서울 강남구 영동대로 513",
        "imageUrl": "http://cfile103.uf.daum.net/image/2476B93B549151790191B8",
        "direction": "",
        "zipcode": "135731",
        "placeUrl": "http://place.map.daum.net/26338954",
        "id": "26338954",
        "title": "카카오프렌즈 코엑스몰점",
        "category": "가정,생활 > 문구,사무용품 > 디자인문구",
        "distance": "",
        "address": "서울 강남구 삼성동 159 코엑스몰 라이브플라자 지하 2층 G209호",
        "longitude": "127.05884373428881",
        "latitude": "37.512731651073615",
        "addressBCode": "1168010500"
      },
      {
        "phone": "02-3145-2233",
        "newAddress": "서울 서대문구 신촌로 83",
        "imageUrl": "http://cfile178.uf.daum.net/image/265DA433544F2B1614642C",
        "direction": "",
        "zipcode": "120706",
        "placeUrl": "http://place.map.daum.net/26029863",
        "id": "26029863",
        "title": "카카오프렌즈 현대백화점신촌점",
        "category": "가정,생활 > 문구,사무용품 > 디자인문구",
        "distance": "",
        "address": "서울 서대문구 창천동 30-33 현대백화점 신촌점 본관 지하2층",
        "longitude": "126.93582111748927",
        "latitude": "37.55607421527123",
        "addressBCode": "1141011600"
      },
      {
        "phone": "051-810-4757",
        "newAddress": "부산 부산진구 가야대로 772",
        "imageUrl": "http://cfile136.uf.daum.net/image/262B094455D5AE4D06B10B",
        "direction": "",
        "zipcode": "614847",
        "placeUrl": "http://place.map.daum.net/26944403",
        "id": "26944403",
        "title": "카카오프렌즈 롯데백화점부산본점",
        "category": "가정,생활 > 문구,사무용품 > 디자인문구",
        "distance": "",
        "address": "부산 부산진구 부전동 503-15 롯데백화점 7층",
        "longitude": "129.0565173287526",
        "latitude": "35.156861711570706",
        "addressBCode": "2623010300"
      },
      {
        "phone": "053-245-3039",
        "newAddress": "대구 중구 달구벌대로 2077",
        "imageUrl": "http://cfile38.uf.daum.net/image/270C7234549151B5099107",
        "direction": "",
        "zipcode": "700082",
        "placeUrl": "http://place.map.daum.net/26395640",
        "id": "26395640",
        "title": "카카오프렌즈 현대백화점대구점",
        "category": "가정,생활 > 문구,사무용품 > 디자인문구",
        "distance": "",
        "address": "대구 중구 계산동2가 200 현대백화점 유플렉스 지하2층 아트리움광장 내",
        "longitude": "128.59060586138457",
        "latitude": "35.86674944523914",
        "addressBCode": "2711013900"
      },
      {
        "phone": "",
        "newAddress": "서울 강남구 압구정로30길 45",
        "imageUrl": "http://cfile1.uf.daum.net/image/270F1A5055D5AD680304F4",
        "direction": "",
        "zipcode": "135893",
        "placeUrl": "http://place.map.daum.net/26945559",
        "id": "26945559",
        "title": "카카오프렌즈 cgv압구정점",
        "category": "가정,생활 > 문구,사무용품 > 디자인문구",
        "distance": "",
        "address": "서울 강남구 신사동 602 1층 카카오프렌즈 스토어(구 콜드스톤)",
        "longitude": "127.02940380539233",
        "latitude": "37.524351174458396",
        "addressBCode": "1168010700"
      },
      {
        "phone": "02-6137-5550",
        "newAddress": "서울 영등포구 국제금융로 10",
        "imageUrl": "http://cfile186.uf.daum.net/image/210CC43355D5AEDC2FB539",
        "direction": "",
        "zipcode": "150945",
        "placeUrl": "http://place.map.daum.net/26945557",
        "id": "26945557",
        "title": "카카오프렌즈 cgv여의도점",
        "category": "가정,생활 > 문구,사무용품 > 디자인문구",
        "distance": "",
        "address": "서울 영등포구 여의도동 23-1 국제금융센터 지하3층",
        "longitude": "126.92549821574677",
        "latitude": "37.525646799749865",
        "addressBCode": "1156011000"
      },
      {
        "phone": "02-2012-2020",
        "newAddress": "서울 용산구 한강대로23길 55",
        "imageUrl": "http://cfile188.uf.daum.net/image/2238FA3555D5AD1624AD36",
        "direction": "",
        "zipcode": "140780",
        "placeUrl": "http://place.map.daum.net/26945558",
        "id": "26945558",
        "title": "카카오프렌즈 cgv용산점",
        "category": "가정,생활 > 문구,사무용품 > 디자인문구",
        "distance": "",
        "address": "서울 용산구 한강로3가 40-999 아이파크몰 6층 cgv 카카오프렌즈 스토어",
        "longitude": "126.96466586153393",
        "latitude": "37.52967627268223",
        "addressBCode": "1117012800"
      },
      {
        "phone": "031-5170-2451",
        "newAddress": "경기 성남시 분당구 판교역로146번길 20",
        "imageUrl": "http://cfile136.uf.daum.net/image/263D023655D5AFAB1AE8CB",
        "direction": "",
        "zipcode": "463420",
        "placeUrl": "http://place.map.daum.net/26944943",
        "id": "26944943",
        "title": "카카오프렌즈 현대백화점판교점",
        "category": "가정,생활 > 문구,사무용품 > 디자인문구",
        "distance": "",
        "address": "경기 성남시 분당구 백현동 541 현대백화점 판교점 유플렉스 4층",
        "longitude": "127.11205203011632",
        "latitude": "37.392797175869184",
        "addressBCode": "4113511000"
      },
      {
        "phone": "062-360-1733",
        "newAddress": "광주 서구 무진대로 932",
        "imageUrl": "http://cfile80.uf.daum.net/image/22268D3F55D5AE801E1524",
        "direction": "",
        "zipcode": "502712",
        "placeUrl": "http://place.map.daum.net/26944457",
        "id": "26944457",
        "title": "카카오프렌즈 신세계백화점광주점",
        "category": "가정,생활 > 문구,사무용품 > 디자인문구",
        "distance": "",
        "address": "광주 서구 광천동 49-1 신세계 백화점 1층",
        "longitude": "126.88263338184267",
        "latitude": "35.160678579166394",
        "addressBCode": "2914011500"
      },
      {
        "phone": "052-960-5325",
        "newAddress": "울산 남구 삼산로 282",
        "imageUrl": "http://cfile185.uf.daum.net/image/211FF73C55D5AEA10C9D7B",
        "direction": "",
        "zipcode": "680815",
        "placeUrl": "http://place.map.daum.net/26945552",
        "id": "26945552",
        "title": "카카오프렌즈 롯데백화점울산점",
        "category": "가정,생활 > 문구,사무용품 > 디자인문구",
        "distance": "",
        "address": "울산 남구 삼산동 1480-1 롯데백화점 영플라자 1층 카카오프렌즈 스토어",
        "longitude": "129.3383369932134",
        "latitude": "35.53844911589696",
        "addressBCode": "3114010600"
      },
      {
        "phone": "055-900-2418",
        "newAddress": "경남 김해시 장유로 469",
        "imageUrl": "http://cfile38.uf.daum.net/image/2522673E55D5AEBB03F8BB",
        "direction": "",
        "zipcode": "621260",
        "placeUrl": "http://place.map.daum.net/26945556",
        "id": "26945556",
        "title": "카카오프렌즈 롯데프리미엄아울렛 김해점",
        "category": "가정,생활 > 문구,사무용품 > 디자인문구",
        "distance": "",
        "address": "경남 김해시 신문동 1414 B블럭 1층 카카오프렌즈스토어",
        "longitude": "128.8295964747241",
        "latitude": "35.18506193868357",
        "addressBCode": "4825012700"
      }
    ],
    "info": {
      "samename": {
        "keyword": "카카오프렌즈",
        "selected_region": ""
      },
      "count": "11",
      "page": "1",
      "totalCount": "11"
    }
  }
}